{
  "meta": {
    "version": "1.0",
    "total_spots": 260,
    "total_weeks": 52,
    "start_date": null,
    "last_updated": null
  },
  "stats": {
    "total_unlocked": 0,
    "routes_completed": 0,
    "continents": {
      "asia": { "total": 65, "unlocked": 0 },
      "europe": { "total": 55, "unlocked": 0 },
      "africa": { "total": 40, "unlocked": 0 },
      "north_america": { "total": 30, "unlocked": 0 },
      "south_america": { "total": 25, "unlocked": 0 },
      "oceania": { "total": 15, "unlocked": 0 },
      "antarctica": { "total": 10, "unlocked": 0 }
    },
    "current_streak": 0,
    "longest_streak": 0
  },
  "routes": [
    {
      "week": "W1",
      "month": 1,
      "name": "北极光之路·上",
      "theme": "极寒之地",
      "season_reason": "1月北极圈内极夜将尽，是观测极光的最佳时机",
      "completed": false,
      "stops": [
        {
          "day": 1,
          "name": "特罗姆瑟极光观测站",
          "full_name": "挪威·特罗姆瑟极光观测站",
          "country": "挪威",
          "continent": "europe",
          "lat": 69.65,
          "lng": 18.95,
          "quality_pool": "legendary",
          "unlocked": false,
          "unlock_date": null,
          "completion_rate": null,
          "image_url": null
        },
        {
          "day": 2,
          "name": "罗弗敦群岛雷讷村",
          "full_name": "挪威·罗弗敦群岛雷讷村",
          "country": "挪威",
          "continent": "europe",
          "lat": 67.93,
          "lng": 13.09,
          "quality_pool": "legendary",
          "unlocked": false,
          "unlock_date": null,
          "completion_rate": null,
          "image_url": null
        },
        {
          "day": 3,
          "name": "基律纳冰酒店",
          "full_name": "瑞典·基律纳冰酒店",
          "country": "瑞典",
          "continent": "europe",
          "lat": 67.86,
          "lng": 20.22,
          "quality_pool": "rare",
          "unlocked": false,
          "unlock_date": null,
          "completion_rate": null,
          "image_url": null
        },
        {
          "day": 4,
          "name": "罗瓦涅米圣诞老人村",
          "full_name": "芬兰·罗瓦涅米圣诞老人村",
          "country": "芬兰",
          "continent": "europe",
          "lat": 66.54,
          "lng": 25.78,
          "quality_pool": "rare",
          "unlocked": false,
          "unlock_date": null,
          "completion_rate": null,
          "image_url": null
        },
        {
          "day": 5,
          "name": "伊纳里萨米文化中心",
          "full_name": "芬兰·伊纳里萨米文化中心",
          "country": "芬兰",
          "continent": "europe",
          "lat": 69.07,
          "lng": 27.02,
          "quality_pool": "common",
          "unlocked": false,
          "unlock_date": null,
          "completion_rate": null,
          "image_url": null
        }
      ]
    },
    {
      "week": "W2",
      "month": 1,
      "name": "北极光之路·下",
      "theme": "极寒之地",
      "season_reason": "冰岛1月日照仅4-5小时，暗夜漫长，极光概率最高",
      "completed": false,
      "stops": [
        {
          "day": 1,
          "name": "哈尔格林姆斯大教堂",
          "full_name": "冰岛·雷克雅未克哈尔格林姆斯大教堂",
          "country": "冰岛",
          "continent": "europe",
          "lat": 64.14,
          "lng": -21.93,
          "quality_pool": "rare",
          "unlocked": false,
          "unlock_date": null,
          "completion_rate": null,
          "image_url": null
        },
        {
          "day": 2,
          "name": "黄金瀑布",
          "full_name": "冰岛·黄金瀑布",
          "country": "冰岛",
          "continent": "europe",
          "lat": 64.33,
          "lng": -20.13,
          "quality_pool": "legendary",
          "unlocked": false,
          "unlock_date": null,
          "completion_rate": null,
          "image_url": null
        },
        {
          "day": 3,
          "name": "杰古沙龙冰河湖",
          "full_name": "冰岛·杰古沙龙冰河湖",
          "country": "冰岛",
          "continent": "europe",
          "lat": 64.08,
          "lng": -16.18,
          "quality_pool": "legendary",
          "unlocked": false,
          "unlock_date": null,
          "completion_rate": null,
          "image_url": null
        },
        {
          "day": 4,
          "name": "黑沙滩维克",
          "full_name": "冰岛·黑沙滩维克",
          "country": "冰岛",
          "continent": "europe",
          "lat": 63.42,
          "lng": -19.00,
          "quality_pool": "rare",
          "unlocked": false,
          "unlock_date": null,
          "completion_rate": null,
          "image_url": null
        },
        {
          "day": 5,
          "name": "伊卢利萨特冰峡湾",
          "full_name": "格陵兰·伊卢利萨特冰峡湾",
          "country": "格陵兰",
          "continent": "north_america",
          "lat": 69.22,
          "lng": -51.10,
          "quality_pool": "legendary",
          "unlocked": false,
          "unlock_date": null,
          "completion_rate": null,
          "image_url": null
        }
      ]
    },
    {
      "week": "W3",
      "month": 1,
      "name": "西伯利亚冰原",
      "theme": "极寒之地",
      "season_reason": "1月贝加尔湖完全冻结，冰面气泡最为壮观",
      "completed": false,
      "stops": [
        {
          "day": 1,
          "name": "贝加尔湖冰面气泡",
          "full_name": "俄罗斯·贝加尔湖冰面气泡",
          "country": "俄罗斯",
          "continent": "asia",
          "lat": 53.50,
          "lng": 107.75,
          "quality_pool": "legendary",
          "unlocked": false,
          "unlock_date": null,
          "completion_rate": null,
          "image_url": null
        },
        {
          "day": 2,
          "name": "奥伊米亚康",
          "full_name": "俄罗斯·奥伊米亚康（极寒之极）",
          "country": "俄罗斯",
          "continent": "asia",
          "lat": 63.46,
          "lng": 142.77,
          "quality_pool": "rare",
          "unlocked": false,
          "unlock_date": null,
          "completion_rate": null,
          "image_url": null
        },
        {
          "day": 3,
          "name": "库苏古尔湖",
          "full_name": "蒙古·库苏古尔湖冬季",
          "country": "蒙古",
          "continent": "asia",
          "lat": 51.10,
          "lng": 100.45,
          "quality_pool": "common",
          "unlocked": false,
          "unlock_date": null,
          "completion_rate": null,
          "image_url": null
        },
        {
          "day": 4,
          "name": "漠河北极村",
          "full_name": "中国·漠河北极村",
          "country": "中国",
          "continent": "asia",
          "lat": 53.48,
          "lng": 122.37,
          "quality_pool": "common",
          "unlocked": false,
          "unlock_date": null,
          "completion_rate": null,
          "image_url": null
        },
        {
          "day": 5,
          "name": "雾凇岛",
          "full_name": "中国·雾凇岛",
          "country": "中国",
          "continent": "asia",
          "lat": 43.90,
          "lng": 126.65,
          "quality_pool": "rare",
          "unlocked": false,
          "unlock_date": null,
          "completion_rate": null,
          "image_url": null
        }
      ]
    },
    {
      "week": "W4",
      "month": 1,
      "name": "阿拉斯加荒野",
      "theme": "极寒之地",
      "season_reason": "1月北美极地动物活跃，北极熊和驯鹿出没",
      "completed": false,
      "stops": [
        {
          "day": 1,
          "name": "德纳利国家公园",
          "full_name": "美国·德纳利国家公园",
          "country": "美国",
          "continent": "north_america",
          "lat": 63.33,
          "lng": -150.50,
          "quality_pool": "legendary",
          "unlocked": false,
          "unlock_date": null,
          "completion_rate": null,
          "image_url": null
        },
        {
          "day": 2,
          "name": "费尔班克斯极光营地",
          "full_name": "美国·费尔班克斯极光营地",
          "country": "美国",
          "continent": "north_america",
          "lat": 64.84,
          "lng": -147.72,
          "quality_pool": "rare",
          "unlocked": false,
          "unlock_date": null,
          "completion_rate": null,
          "image_url": null
        },
        {
          "day": 3,
          "name": "育空道森市",
          "full_name": "加拿大·育空道森市",
          "country": "加拿大",
          "continent": "north_america",
          "lat": 64.06,
          "lng": -139.43,
          "quality_pool": "common",
          "unlocked": false,
          "unlock_date": null,
          "completion_rate": null,
          "image_url": null
        },
        {
          "day": 4,
          "name": "丘吉尔北极熊之都",
          "full_name": "加拿大·丘吉尔北极熊之都",
          "country": "加拿大",
          "continent": "north_america",
          "lat": 58.77,
          "lng": -94.17,
          "quality_pool": "rare",
          "unlocked": false,
          "unlock_date": null,
          "completion_rate": null,
          "image_url": null
        },
        {
          "day": 5,
          "name": "黄刀镇极光湖",
          "full_name": "加拿大·黄刀镇极光湖",
          "country": "加拿大",
          "continent": "north_america",
          "lat": 62.45,
          "lng": -114.37,
          "quality_pool": "rare",
          "unlocked": false,
          "unlock_date": null,
          "completion_rate": null,
          "image_url": null
        }
      ]
    }
  ]
}
